[{"id":"1612480","name":"Mokuoloe","state":"HI","lat":21.4331,"lon":-157.79,"tz":"Pacific/Honolulu","offset":600},{"id":"8572271","name":"Poplar Island","state":"MD","lat":38.7583,"lon":-76.375,"tz":"America/New_York","offset":240},{"id":"8545240","name":"Philadelphia","state":"PA","lat":39.9333,"lon":-75.1417,"tz":"America/New_York","offset":240},{"id":"8728690","name":"Apalachicola","state":"FL","lat":29.7267,"lon":-84.9817,"tz":"America/New_York","offset":240},{"id":"8419317","name":"Wells","state":"ME","lat":43.32,"lon":-70.5633,"tz":"America/New_York","offset":240},{"id":"8723214","name":"Virginia Key","state":"FL","lat":25.7314,"lon":-80.1618,"tz":"America/New_York","offset":240},{"id":"1631428","name":"Pago Bay, Guam","state":" ","lat":13.4283,"lon":144.797,"tz":"Pacific/Guam","offset":-600},{"id":"8774770","name":"Rockport","state":"TX","lat":28.0217,"lon":-97.0467,"tz":"America/Chicago","offset":300},{"id":"8779748","name":"South Padre Island Coast Guard Station","state":"TX","lat":26.0767,"lon":-97.1767,"tz":"America/Chicago","offset":300},{"id":"8557380","name":"Lewes","state":"DE","lat":38.7817,"lon":-75.12,"tz":"America/New_York","offset":240},{"id":"8571421","name":"Bishops Head","state":"MD","lat":38.22,"lon":-76.0383,"tz":"America/New_York","offset":240},{"id":"8720357","name":"I-295 Bridge, St Johns River","state":"FL","lat":30.1917,"lon":-81.6917,"tz":"America/New_York","offset":240},{"id":"8735523","name":"East Fowl River Bridge","state":"AL","lat":30.4437,"lon":-88.1139,"tz":"America/Chicago","offset":300},{"id":"8735180","name":"Dauphin Island","state":"AL","lat":30.25,"lon":-88.075,"tz":"America/Chicago","offset":300},{"id":"8656483","name":"Beaufort","state":"NC","lat":34.72,"lon":-76.67,"tz":"America/New_York","offset":240},{"id":"8725520","name":"Fort Myers","state":"FL","lat":26.6477,"lon":-81.8712,"tz":"America/New_York","offset":240},{"id":"8737048","name":"Mobile State Docks","state":"AL","lat":30.7083,"lon":-88.0433,"tz":"America/Chicago","offset":300},{"id":"8447435","name":"Chatham","state":"MA","lat":41.6885,"lon":-69.9511,"tz":"America/New_York","offset":240},{"id":"8452944","name":"Conimicut Light","state":"RI","lat":41.7167,"lon":-71.3433,"tz":"America/New_York","offset":240},{"id":"8724580","name":"Key West","state":"FL","lat":24.5557,"lon":-81.8079,"tz":"America/New_York","offset":240},{"id":"8423898","name":"Fort Point","state":"NH","lat":43.0717,"lon":-70.7117,"tz":"America/New_York","offset":240},{"id":"1615680","name":"Kahului, Kahului Harbor","state":"HI","lat":20.895,"lon":-156.4767,"tz":"Pacific/Honolulu","offset":600},{"id":"8454049","name":"Quonset Point","state":"RI","lat":41.5868,"lon":-71.411,"tz":"America/New_York","offset":240},{"id":"8735391","name":"Dog River Bridge","state":"AL","lat":30.5652,"lon":-88.088,"tz":"America/Chicago","offset":300},{"id":"8575512","name":"Annapolis","state":"MD","lat":38.9833,"lon":-76.4816,"tz":"America/New_York","offset":240},{"id":"8726384","name":"Port Manatee","state":"FL","lat":27.6387,"lon":-82.5621,"tz":"America/New_York","offset":240},{"id":"8540433","name":"Marcus Hook","state":"PA","lat":39.8117,"lon":-75.41,"tz":"America/New_York","offset":240},{"id":"8741041","name":"Dock E, Port of Pascagoula","state":"MS","lat":30.3477,"lon":-88.5054,"tz":"America/Chicago","offset":300},{"id":"8447386","name":"Fall River","state":"MA","lat":41.7043,"lon":-71.1641,"tz":"America/New_York","offset":240},{"id":"8723970","name":"Vaca Key","state":"FL","lat":24.7117,"lon":-81.105,"tz":"America/New_York","offset":240},{"id":"8447930","name":"Woods Hole","state":"MA","lat":41.5233,"lon":-70.6717,"tz":"America/New_York","offset":240},{"id":"2695540","name":"Bermuda Esso Pier","state":" ","lat":32.3734,"lon":-64.7033,"tz":"Atlantic/Bermuda","offset":180},{"id":"8770777","name":"Manchester","state":"TX","lat":29.7263,"lon":-95.2658,"tz":"America/Chicago","offset":300},{"id":"8771450","name":"Galveston Pier 21","state":"TX","lat":29.31,"lon":-94.7933,"tz":"America/Chicago","offset":300},{"id":"8774513","name":"Copano Bay","state":"TX","lat":28.1183,"lon":-97.0217,"tz":"America/Chicago","offset":300},{"id":"1619910","name":"Sand Island, Midway Islands","state":" ","lat":28.2117,"lon":-177.36,"tz":"Pacific/Midway","offset":660},{"id":"1630000","name":"Apra Harbor, Guam","state":" ","lat":13.4387,"lon":144.6539,"tz":"Pacific/Guam","offset":-600},{"id":"8413320","name":"Bar Harbor","state":"ME","lat":44.3917,"lon":-68.205,"tz":"America/New_York","offset":240},{"id":"8726667","name":"Mckay Bay Entrance","state":"FL","lat":27.9133,"lon":-82.425,"tz":"America/New_York","offset":240},{"id":"8461490","name":"New London","state":"CT","lat":41.3614,"lon":-72.09,"tz":"America/New_York","offset":240},{"id":"8770520","name":"Rainbow Bridge","state":"TX","lat":29.98,"lon":-93.8817,"tz":"America/Chicago","offset":300},{"id":"8652587","name":"Oregon Inlet Marina","state":"NC","lat":35.795,"lon":-75.5483,"tz":"America/New_York","offset":240},{"id":"8775283","name":"Port Ingleside, Corpus Christi Bay","state":"TX","lat":27.8217,"lon":-97.2033,"tz":"America/Chicago","offset":300},{"id":"8574680","name":"Baltimore","state":"MD","lat":39.2667,"lon":-76.5783,"tz":"America/New_York","offset":240},{"id":"8577330","name":"Solomons Island","state":"MD","lat":38.3167,"lon":-76.4517,"tz":"America/New_York","offset":240},{"id":"8770475","name":"Port Arthur","state":"TX","lat":29.8667,"lon":-93.93,"tz":"America/Chicago","offset":300},{"id":"8736897","name":"Coast Guard Sector Mobile","state":"AL","lat":30.6483,"lon":-88.0583,"tz":"America/Chicago","offset":300},{"id":"8539094","name":"Burlington, Delaware River","state":"NJ","lat":40.0817,"lon":-74.8697,"tz":"America/New_York","offset":240},{"id":"8726607","name":"Old Port Tampa","state":"FL","lat":27.8578,"lon":-82.5527,"tz":"America/New_York","offset":240},{"id":"8739803","name":"Bayou La Batre Bridge","state":"AL","lat":30.4057,"lon":-88.2477,"tz":"America/Chicago","offset":300},{"id":"8737138","name":"Chickasaw Creek","state":"AL","lat":30.7819,"lon":-88.0736,"tz":"America/Chicago","offset":300},{"id":"8779770","name":"Port Isabel","state":"TX","lat":26.06,"lon":-97.215,"tz":"America/Chicago","offset":300},{"id":"8638610","name":"Sewells Point","state":"VA","lat":36.9467,"lon":-76.33,"tz":"America/New_York","offset":240},{"id":"8551910","name":"Reedy Point","state":"DE","lat":39.5583,"lon":-75.5733,"tz":"America/New_York","offset":240},{"id":"8537121","name":"Ship John Shoal","state":"NJ","lat":39.305,"lon":-75.375,"tz":"America/New_York","offset":240},{"id":"8775870","name":"Bob Hall Pier, Corpus Christi","state":"TX","lat":27.58,"lon":-97.2167,"tz":"America/Chicago","offset":300},{"id":"8726520","name":"St. Petersburg","state":"FL","lat":27.7606,"lon":-82.6269,"tz":"America/New_York","offset":240},{"id":"8418150","name":"Portland","state":"ME","lat":43.6567,"lon":-70.2467,"tz":"America/New_York","offset":240},{"id":"8632200","name":"Kiptopeke","state":"VA","lat":37.1652,"lon":-75.9884,"tz":"America/New_York","offset":240},{"id":"8636580","name":"Windmill Point","state":"VA","lat":37.6162,"lon":-76.29,"tz":"America/New_York","offset":240},{"id":"8725110","name":"Naples","state":"FL","lat":26.1317,"lon":-81.8075,"tz":"America/New_York","offset":240},{"id":"8727520","name":"Cedar Key","state":"FL","lat":29.135,"lon":-83.0317,"tz":"America/New_York","offset":240},{"id":"8538886","name":"Tacony-Palmyra Bridge","state":"NJ","lat":40.0119,"lon":-75.043,"tz":"America/New_York","offset":240},{"id":"8772447","name":"USCG Freeport","state":"TX","lat":28.9433,"lon":-95.3025,"tz":"America/Chicago","offset":300},{"id":"8764044","name":"Berwick","state":"LA","lat":29.6675,"lon":-91.2376,"tz":"America/Chicago","offset":300},{"id":"8721604","name":"Trident Pier","state":"FL","lat":28.4158,"lon":-80.5931,"tz":"America/New_York","offset":240},{"id":"8770971","name":"Rollover Pass","state":"TX","lat":29.515,"lon":-94.5133,"tz":"America/Chicago","offset":300},{"id":"8594900","name":"Washington","state":"DC","lat":38.8733,"lon":-77.0217,"tz":"America/New_York","offset":240},{"id":"8726724","name":"Clearwater Beach","state":"FL","lat":27.9783,"lon":-82.8317,"tz":"America/New_York","offset":240},{"id":"8551762","name":"Delaware City","state":"DE","lat":39.5817,"lon":-75.5883,"tz":"America/New_York","offset":240},{"id":"8770733","name":"Lynchburg Landing","state":"TX","lat":29.765,"lon":-95.0783,"tz":"America/Chicago","offset":300},{"id":"8661070","name":"Springmaid Pier","state":"SC","lat":33.655,"lon":-78.9183,"tz":"America/New_York","offset":240},{"id":"8531680","name":"Sandy Hook","state":"NJ","lat":40.4669,"lon":-74.0094,"tz":"America/New_York","offset":240},{"id":"8452660","name":"Newport","state":"RI","lat":41.505,"lon":-71.3267,"tz":"America/New_York","offset":240},{"id":"8571892","name":"Cambridge","state":"MD","lat":38.5733,"lon":-76.0683,"tz":"America/New_York","offset":240},{"id":"1611400","name":"Nawiliwili","state":"HI","lat":21.9544,"lon":-159.3561,"tz":"Pacific/Honolulu","offset":600},{"id":"8670870","name":"Fort Pulaski","state":"GA","lat":32.0333,"lon":-80.9017,"tz":"America/New_York","offset":240},{"id":"8573364","name":"Tolchester Beach","state":"MD","lat":39.2133,"lon":-76.245,"tz":"America/New_York","offset":240},{"id":"8771341","name":"Galveston Bay Entrance, North Jetty","state":"TX","lat":29.3573,"lon":-94.7248,"tz":"America/Chicago","offset":300},{"id":"8573927","name":"Chesapeake City","state":"MD","lat":39.5267,"lon":-75.81,"tz":"America/New_York","offset":240},{"id":"1770000","name":"Pago Pago, American Samoa","state":" ","lat":-14.28,"lon":-170.69,"tz":"Pacific/Pago_Pago","offset":660},{"id":"8658163","name":"Wrightsville Beach","state":"NC","lat":34.2133,"lon":-77.7867,"tz":"America/New_York","offset":240},{"id":"8761724","name":"Grand Isle","state":"LA","lat":29.2633,"lon":-89.9567,"tz":"America/Chicago","offset":300},{"id":"8760721","name":"Pilottown","state":"LA","lat":29.1783,"lon":-89.2583,"tz":"America/Chicago","offset":300},{"id":"8770822","name":"Texas Point, Sabine Pass","state":"TX","lat":29.6781,"lon":-93.8369,"tz":"America/Chicago","offset":300},{"id":"8639348","name":"Money Point","state":"VA","lat":36.7783,"lon":-76.3017,"tz":"America/New_York","offset":240},{"id":"8741533","name":"Pascagoula NOAA Lab","state":"MS","lat":30.3679,"lon":-88.563,"tz":"America/Chicago","offset":300},{"id":"8720030","name":"Fernandina Beach","state":"FL","lat":30.6717,"lon":-81.465,"tz":"America/New_York","offset":240},{"id":"8779280","name":"Realitos Peninsula","state":"TX","lat":26.2622,"lon":-97.2854,"tz":"America/Chicago","offset":300},{"id":"8775237","name":"Port Aransas","state":"TX","lat":27.8383,"lon":-97.0733,"tz":"America/Chicago","offset":300},{"id":"8638863","name":"Chesapeake Bay Bridge Tunnel","state":"VA","lat":36.9667,"lon":-76.1133,"tz":"America/New_York","offset":240},{"id":"8662245","name":"Oyster Landing (N. Inlet Estuary)","state":"SC","lat":33.3517,"lon":-79.1867,"tz":"America/New_York","offset":240},{"id":"8775792","name":"Packery Channel","state":"TX","lat":27.6333,"lon":-97.2367,"tz":"America/Chicago","offset":300},{"id":"8651370","name":"Duck","state":"NC","lat":36.1833,"lon":-75.7467,"tz":"America/New_York","offset":240},{"id":"8761305","name":"Shell Beach","state":"LA","lat":29.8681,"lon":-89.6732,"tz":"America/Chicago","offset":300},{"id":"8771013","name":"Eagle Point","state":"TX","lat":29.48,"lon":-94.9183,"tz":"America/Chicago","offset":300},{"id":"8760922","name":"Pilots Station East, SW Pass","state":"LA","lat":28.9322,"lon":-89.4075,"tz":"America/Chicago","offset":300},{"id":"8516945","name":"Kings Point","state":"NY","lat":40.8103,"lon":-73.7649,"tz":"America/New_York","offset":240},{"id":"8773037","name":"Seadrift","state":"TX","lat":28.4083,"lon":-96.7117,"tz":"America/Chicago","offset":300},{"id":"8729840","name":"Pensacola","state":"FL","lat":30.4044,"lon":-87.2112,"tz":"America/Chicago","offset":300},{"id":"1612340","name":"Honolulu","state":"HI","lat":21.3067,"lon":-157.867,"tz":"Pacific/Honolulu","offset":600},{"id":"8767816","name":"Lake Charles","state":"LA","lat":30.2236,"lon":-93.2217,"tz":"America/Chicago","offset":300},{"id":"8635750","name":"Lewisetta","state":"VA","lat":37.9961,"lon":-76.4644,"tz":"America/New_York","offset":240},{"id":"8465705","name":"New Haven","state":"CT","lat":41.2833,"lon":-72.9083,"tz":"America/New_York","offset":240},{"id":"8632837","name":"Rappahannock Light","state":"VA","lat":37.5383,"lon":-76.015,"tz":"America/New_York","offset":240},{"id":"8411060","name":"Cutler Farris Wharf","state":"ME","lat":44.6567,"lon":-67.21,"tz":"America/New_York","offset":240},{"id":"8773701","name":"Port O'Connor","state":"TX","lat":28.4517,"lon":-96.3883,"tz":"America/Chicago","offset":300},{"id":"8761927","name":"New Canal Station","state":"LA","lat":30.0272,"lon":-90.1134,"tz":"America/Chicago","offset":300},{"id":"8766072","name":"Freshwater Canal Locks","state":"LA","lat":29.555,"lon":-92.305,"tz":"America/Chicago","offset":300},{"id":"8637689","name":"Yorktown USCG Training Center","state":"VA","lat":37.2267,"lon":-76.4783,"tz":"America/New_York","offset":240},{"id":"8764227","name":"LAWMA, Amerada Pass","state":"LA","lat":29.4496,"lon":-91.3381,"tz":"America/Chicago","offset":300},{"id":"8570283","name":"Ocean City Inlet","state":"MD","lat":38.3283,"lon":-75.0917,"tz":"America/New_York","offset":240},{"id":"8518750","name":"The Battery","state":"NY","lat":40.7006,"lon":-74.0142,"tz":"America/New_York","offset":240},{"id":"8448725","name":"Menemsha Harbor, MA","state":"MA","lat":41.3544,"lon":-70.7678,"tz":"America/New_York","offset":240},{"id":"8768094","name":"Calcasieu Pass","state":"LA","lat":29.7682,"lon":-93.3429,"tz":"America/Chicago","offset":300},{"id":"8667633","name":"Clarendon Plantation","state":"SC","lat":32.5025,"lon":-80.7841,"tz":"America/New_York","offset":240},{"id":"8534720","name":"Atlantic City","state":"NJ","lat":39.355,"lon":-74.4183,"tz":"America/New_York","offset":240},{"id":"8467150","name":"Bridgeport","state":"CT","lat":41.1733,"lon":-73.1817,"tz":"America/New_York","offset":240},{"id":"8449130","name":"Nantucket Island","state":"MA","lat":41.285,"lon":-70.0967,"tz":"America/New_York","offset":240},{"id":"8548989","name":"Newbold","state":"PA","lat":40.1367,"lon":-74.7517,"tz":"America/New_York","offset":240},{"id":"8410140","name":"Eastport","state":"ME","lat":44.9046,"lon":-66.9829,"tz":"America/New_York","offset":240},{"id":"8631044","name":"Wachapreague","state":"VA","lat":37.6078,"lon":-75.6858,"tz":"America/New_York","offset":240},{"id":"8770570","name":"Sabine Pass North","state":"TX","lat":29.7284,"lon":-93.8701,"tz":"America/Chicago","offset":300},{"id":"8773259","name":"Port Lavaca","state":"TX","lat":28.64,"lon":-96.595,"tz":"America/Chicago","offset":300},{"id":"8770613","name":"Morgans Point","state":"TX","lat":29.6817,"lon":-94.985,"tz":"America/Chicago","offset":300},{"id":"1617433","name":"Kawaihae","state":"HI","lat":20.0366,"lon":-155.8294,"tz":"Pacific/Honolulu","offset":600},{"id":"8767961","name":"Bulk Terminal","state":"LA","lat":30.1903,"lon":-93.3007,"tz":"America/Chicago","offset":300},{"id":"8665530","name":"Charleston","state":"SC","lat":32.7817,"lon":-79.925,"tz":"America/New_York","offset":240},{"id":"8775296","name":"Texas State Aquarium","state":"TX","lat":27.8117,"lon":-97.39,"tz":"America/Chicago","offset":300},{"id":"8771486","name":"Galveston Railroad Bridge","state":"TX","lat":29.3026,"lon":-94.8971,"tz":"America/Chicago","offset":300},{"id":"8729108","name":"Panama City","state":"FL","lat":30.1523,"lon":-85.6669,"tz":"America/Chicago","offset":300},{"id":"8722670","name":"Lake Worth Pier","state":"FL","lat":26.6117,"lon":-80.0333,"tz":"America/New_York","offset":240},{"id":"8658120","name":"Wilmington","state":"NC","lat":34.2267,"lon":-77.9533,"tz":"America/New_York","offset":240},{"id":"8732828","name":"Weeks Bay","state":"AL","lat":30.4167,"lon":-87.825,"tz":"America/Chicago","offset":300},{"id":"8747437","name":"Bay Waveland Yacht Club","state":"MS","lat":30.3264,"lon":-89.3258,"tz":"America/Chicago","offset":300},{"id":"1890000","name":"Wake Island, Pacific Ocean","state":" ","lat":19.29,"lon":166.618,"tz":"Pacific/Wake","offset":-720},{"id":"8454000","name":"Providence","state":"RI","lat":41.8071,"lon":-71.4012,"tz":"America/New_York","offset":240},{"id":"8536110","name":"Cape May","state":"NJ","lat":38.9683,"lon":-74.96,"tz":"America/New_York","offset":240},{"id":"8519483","name":"Bergen Point West Reach","state":"NY","lat":40.6367,"lon":-74.1417,"tz":"America/New_York","offset":240},{"id":"8738043","name":"West Fowl River Bridge","state":"AL","lat":30.3766,"lon":-88.1586,"tz":"America/Chicago","offset":300},{"id":"8510560","name":"Montauk","state":"NY","lat":41.0483,"lon":-71.96,"tz":"America/New_York","offset":240},{"id":"8654467","name":"USCG Station Hatteras","state":"NC","lat":35.2086,"lon":-75.7042,"tz":"America/New_York","offset":240},{"id":"8762075","name":"Port Fourchon","state":"LA","lat":29.1142,"lon":-90.1992,"tz":"America/Chicago","offset":300},{"id":"1820000","name":"Kwajalein, Marshall Islands","state":" ","lat":8.7316,"lon":167.7362,"tz":"Pacific/Kwajalein","offset":-720},{"id":"8443970","name":"Boston","state":"MA","lat":42.3548,"lon":-71.0534,"tz":"America/New_York","offset":240},{"id":"8720218","name":"Mayport (Bar Pilots Dock)","state":"FL","lat":30.3967,"lon":-81.43,"tz":"America/New_York","offset":240},{"id":"1617760","name":"Hilo, Hilo Bay, Kuhio Bay","state":"HI","lat":19.7303,"lon":-155.0558,"tz":"Pacific/Honolulu","offset":600},{"id":"9414958","name":"Bolinas, Bolinas Lagoon","state":"CA","lat":37.908,"lon":-122.6785,"tz":"America/Los_Angeles","offset":420},{"id":"9410230","name":"La Jolla","state":"CA","lat":32.8667,"lon":-117.258,"tz":"America/Los_Angeles","offset":420},{"id":"9411340","name":"Santa Barbara","state":"CA","lat":34.4083,"lon":-119.685,"tz":"America/Los_Angeles","offset":420},{"id":"9754228","name":"Yabucoa Harbor","state":"PR","lat":18.0551,"lon":-65.833,"tz":"America/Puerto_Rico","offset":240},{"id":"9414750","name":"Alameda","state":"CA","lat":37.7717,"lon":-122.2983,"tz":"America/Los_Angeles","offset":420},{"id":"9441102","name":"Westport","state":"WA","lat":46.9043,"lon":-124.1051,"tz":"America/Los_Angeles","offset":420},{"id":"9412110","name":"Port San Luis","state":"CA","lat":35.1767,"lon":-120.76,"tz":"America/Los_Angeles","offset":420},{"id":"9442396","name":"La Push","state":"WA","lat":47.9133,"lon":-124.637,"tz":"America/Los_Angeles","offset":420},{"id":"9414575","name":"Coyote Creek","state":"CA","lat":37.465,"lon":-122.023,"tz":"America/Los_Angeles","offset":420},{"id":"9457292","name":"Kodiak Island","state":"AK","lat":57.7317,"lon":-152.512,"tz":"America/Anchorage","offset":480},{"id":"9452634","name":"Elfin Cove","state":"AK","lat":58.1947,"lon":-136.3469,"tz":"America/Juneau","offset":480},{"id":"9462620","name":"Unalaska","state":"AK","lat":53.88,"lon":-166.537,"tz":"America/Nome","offset":480},{"id":"9411406","name":"Oil Platform Harvest","state":"CA","lat":34.4683,"lon":-120.673,"tz":"America/Los_Angeles","offset":420},{"id":"9491094","name":"Red Dog Dock","state":"AK","lat":67.5767,"lon":-164.065,"tz":"America/Nome","offset":480},{"id":"9449424","name":"Cherry Point","state":"WA","lat":48.8633,"lon":-122.758,"tz":"America/Los_Angeles","offset":420},{"id":"9413450","name":"Monterey","state":"CA","lat":36.605,"lon":-121.888,"tz":"America/Los_Angeles","offset":420},{"id":"9414290","name":"San Francisco","state":"CA","lat":37.8067,"lon":-122.465,"tz":"America/Los_Angeles","offset":420},{"id":"9755371","name":"San Juan","state":"PR","lat":18.4589,"lon":-66.1164,"tz":"America/Puerto_Rico","offset":240},{"id":"9410170","name":"San Diego","state":"CA","lat":32.7142,"lon":-117.1736,"tz":"America/Los_Angeles","offset":420},{"id":"9751381","name":"Lameshur Bay, St. John","state":"VI","lat":18.3182,"lon":-64.7242,"tz":"America/St_Thomas","offset":240},{"id":"9455090","name":"Seward","state":"AK","lat":60.12,"lon":-149.4267,"tz":"America/Anchorage","offset":480},{"id":"9443090","name":"Neah Bay","state":"WA","lat":48.3667,"lon":-124.6117,"tz":"America/Los_Angeles","offset":420},{"id":"9464212","name":"Village Cove, St. Paul Island","state":"AK","lat":57.1253,"lon":-170.2852,"tz":"America/Nome","offset":480},{"id":"9415102","name":"Martinez-Amorco Pier","state":"CA","lat":38.0346,"lon":-122.1252,"tz":"America/Los_Angeles","offset":420},{"id":"9439040","name":"Astoria","state":"OR","lat":46.2073,"lon":-123.7683,"tz":"America/Los_Angeles","offset":420},{"id":"9414863","name":"Richmond","state":"CA","lat":37.9283,"lon":-122.4,"tz":"America/Los_Angeles","offset":420},{"id":"9437540","name":"Garibaldi","state":"OR","lat":45.5545,"lon":-123.9189,"tz":"America/Los_Angeles","offset":420},{"id":"9453220","name":"Yakutat, Yakutat Bay","state":"AK","lat":59.5485,"lon":-139.7334,"tz":"America/Yakutat","offset":480},{"id":"9758053","name":"Penuelas (Punta Guayanilla)","state":"PR","lat":17.9725,"lon":-66.7618,"tz":"America/Puerto_Rico","offset":240},{"id":"9462450","name":"Nikolski","state":"AK","lat":52.9406,"lon":-168.8713,"tz":"America/Nome","offset":480},{"id":"9444900","name":"Port Townsend","state":"WA","lat":48.1117,"lon":-122.758,"tz":"America/Los_Angeles","offset":420},{"id":"9459450","name":"Sand Point","state":"AK","lat":55.3367,"lon":-160.502,"tz":"America/Anchorage","offset":480},{"id":"9757809","name":"Arecibo","state":"PR","lat":18.4805,"lon":-66.7024,"tz":"America/Puerto_Rico","offset":240},{"id":"9463502","name":"Port Moller","state":"AK","lat":55.99,"lon":-160.562,"tz":"America/Anchorage","offset":480},{"id":"9454050","name":"Cordova","state":"AK","lat":60.5583,"lon":-145.753,"tz":"America/Anchorage","offset":480},{"id":"9435380","name":"South Beach","state":"OR","lat":44.625,"lon":-124.043,"tz":"America/Los_Angeles","offset":420},{"id":"9454240","name":"Valdez","state":"AK","lat":61.125,"lon":-146.362,"tz":"America/Anchorage","offset":480},{"id":"9452400","name":"Skagway","state":"AK","lat":59.45,"lon":-135.327,"tz":"America/Juneau","offset":480},{"id":"9759110","name":"Magueyes Island","state":"PR","lat":17.9701,"lon":-67.0464,"tz":"America/Puerto_Rico","offset":240},{"id":"9447130","name":"Seattle","state":"WA","lat":47.6026,"lon":-122.3393,"tz":"America/Los_Angeles","offset":420},{"id":"9419750","name":"Crescent City","state":"CA","lat":41.745,"lon":-124.183,"tz":"America/Los_Angeles","offset":420},{"id":"9449880","name":"Friday Harbor","state":"WA","lat":48.5467,"lon":-123.01,"tz":"America/Los_Angeles","offset":420},{"id":"9455760","name":"Nikiski","state":"AK","lat":60.6833,"lon":-151.398,"tz":"America/Anchorage","offset":480},{"id":"9457804","name":"Alitak","state":"AK","lat":56.8983,"lon":-154.247,"tz":"America/Anchorage","offset":480},{"id":"9752695","name":"Esperanza, Vieques Island","state":"PR","lat":18.0939,"lon":-65.4714,"tz":"America/Puerto_Rico","offset":240},{"id":"9412802","name":"Mansfield Cone","state":"CA","lat":35.9495,"lon":-121.4819,"tz":"America/Los_Angeles","offset":420},{"id":"9446484","name":"Tacoma","state":"WA","lat":47.2667,"lon":-122.4133,"tz":"America/Los_Angeles","offset":420},{"id":"9751364","name":"Christiansted Harbor, St Croix","state":"VI","lat":17.75,"lon":-64.705,"tz":"America/St_Thomas","offset":240},{"id":"9751639","name":"Charlotte Amalie","state":"VI","lat":18.3358,"lon":-64.92,"tz":"America/St_Thomas","offset":240},{"id":"9752619","name":"Isabel Segunda, Vieques Island","state":"PR","lat":18.1525,"lon":-65.4438,"tz":"America/Puerto_Rico","offset":240},{"id":"9759394","name":"Mayaguez","state":"PR","lat":18.22,"lon":-67.16,"tz":"America/Puerto_Rico","offset":240},{"id":"9439201","name":"St. Helens","state":"OR","lat":45.865,"lon":-122.797,"tz":"America/Los_Angeles","offset":420},{"id":"9461710","name":"Atka","state":"AK","lat":52.2317,"lon":-174.173,"tz":"America/Adak","offset":540},{"id":"9440083","name":"Vancouver","state":"WA","lat":45.6317,"lon":-122.697,"tz":"America/Los_Angeles","offset":420},{"id":"9439011","name":"Hammond","state":"OR","lat":46.2017,"lon":-123.945,"tz":"America/Los_Angeles","offset":420},{"id":"9455500","name":"Seldovia","state":"AK","lat":59.4405,"lon":-151.7199,"tz":"America/Anchorage","offset":480},{"id":"9761115","name":"Barbuda","state":" ","lat":17.5907,"lon":-61.8206,"tz":"America/Antigua","offset":240},{"id":"9451600","name":"Sitka","state":"AK","lat":57.0517,"lon":-135.342,"tz":"America/Sitka","offset":480},{"id":"9431647","name":"Port Orford","state":"OR","lat":42.739,"lon":-124.4983,"tz":"America/Los_Angeles","offset":420},{"id":"9451054","name":"Port Alexander","state":"AK","lat":56.2467,"lon":-134.647,"tz":"America/Sitka","offset":480},{"id":"9415020","name":"Point Reyes","state":"CA","lat":37.9961,"lon":-122.9767,"tz":"America/Los_Angeles","offset":420},{"id":"9410660","name":"Los Angeles","state":"CA","lat":33.72,"lon":-118.272,"tz":"America/Los_Angeles","offset":420},{"id":"9452210","name":"Juneau","state":"AK","lat":58.2983,"lon":-134.412,"tz":"America/Juneau","offset":480},{"id":"9440422","name":"Longview","state":"WA","lat":46.1061,"lon":-122.9542,"tz":"America/Los_Angeles","offset":420},{"id":"9461380","name":"Adak Island","state":"AK","lat":51.8633,"lon":-176.632,"tz":"America/Adak","offset":540},{"id":"9440910","name":"Toke Point","state":"WA","lat":46.7075,"lon":-123.9669,"tz":"America/Los_Angeles","offset":420},{"id":"9440569","name":"Skamokawa","state":"WA","lat":46.2667,"lon":-123.452,"tz":"America/Los_Angeles","offset":420},{"id":"9415144","name":"Port Chicago","state":"CA","lat":38.056,"lon":-122.0395,"tz":"America/Los_Angeles","offset":420},{"id":"9459881","name":"King Cove","state":"AK","lat":55.0617,"lon":-162.327,"tz":"America/Nome","offset":480},{"id":"9450460","name":"Ketchikan","state":"AK","lat":55.3318,"lon":-131.6262,"tz":"America/Sitka","offset":480},{"id":"9432780","name":"Charleston","state":"OR","lat":43.345,"lon":-124.322,"tz":"America/Los_Angeles","offset":420},{"id":"9418767","name":"North Spit","state":"CA","lat":40.7667,"lon":-124.217,"tz":"America/Los_Angeles","offset":420},{"id":"9410840","name":"Santa Monica","state":"CA","lat":34.0083,"lon":-118.5,"tz":"America/Los_Angeles","offset":420},{"id":"9759938","name":"Mona Island","state":"PR","lat":18.0899,"lon":-67.9385,"tz":"America/Puerto_Rico","offset":240},{"id":"9414523","name":"Redwood City","state":"CA","lat":37.5067,"lon":-122.21,"tz":"America/Los_Angeles","offset":420},{"id":"9439099","name":"Wauna","state":"OR","lat":46.16,"lon":-123.405,"tz":"America/Los_Angeles","offset":420},{"id":"9455920","name":"Anchorage","state":"AK","lat":61.2383,"lon":-149.89,"tz":"America/Anchorage","offset":480},{"id":"9444090","name":"Port Angeles","state":"WA","lat":48.125,"lon":-123.44,"tz":"America/Los_Angeles","offset":420},{"id":"9751401","name":"Lime Tree Bay","state":"VI","lat":17.6947,"lon":-64.7538,"tz":"America/St_Thomas","offset":240},{"id":"9497645","name":"Prudhoe Bay","state":"AK","lat":70.4,"lon":-148.527,"tz":"America/Anchorage","offset":480},{"id":"9416841","name":"Arena Cove","state":"CA","lat":38.9133,"lon":-123.708,"tz":"America/Los_Angeles","offset":420},{"id":"9753216","name":"Fajardo","state":"PR","lat":18.3352,"lon":-65.6311,"tz":"America/Puerto_Rico","offset":240},{"id":"9468756","name":"Nome, Norton Sound","state":"AK","lat":64.5,"lon":-165.43,"tz":"America/Nome","offset":480}]